{
  "metadata": {
    "city": "北京",
    "total_companies": 30,
    "coordinate_system": "WGS84",
    "year": 2024,
    "update_time": "2026-02-15"
  },
  "companies": [
    {
      "company_id": "F500_001",
      "name": "中国石油天然气集团",
      "name_en": "China National Petroleum",
      "short_name": "中石油",
      "industry": "石油石化",
      "rank_2024": 4,
      "address": "北京市东城区东直门北大街9号",
      "district": "东城",
      "longitude": 116.4312,
      "latitude": 39.9456,
      "category": "company",
      "nearby_subway": "东直门站"
    },
    {
      "company_id": "F500_002",
      "name": "中国石化集团",
      "name_en": "Sinopec Group",
      "short_name": "中石化",
      "industry": "石油石化",
      "rank_2024": 5,
      "address": "北京市朝阳区朝阳门北大街22号",
      "district": "朝阳",
      "longitude": 116.4389,
      "latitude": 39.9312,
      "category": "company",
      "nearby_subway": "朝阳门站"
    },
    {
      "company_id": "F500_003",
      "name": "国家电网",
      "name_en": "State Grid",
      "short_name": "国网",
      "industry": "电力",
      "rank_2024": 3,
      "address": "北京市西城区西长安街86号",
      "district": "西城",
      "longitude": 116.3812,
      "latitude": 39.9123,
      "category": "company",
      "nearby_subway": "西单站"
    },
    {
      "company_id": "F500_004",
      "name": "中国建筑集团",
      "name_en": "China State Construction Engineering",
      "short_name": "中建",
      "industry": "建筑",
      "rank_2024": 9,
      "address": "北京市海淀区三里河路15号",
      "district": "海淀",
      "longitude": 116.3389,
      "latitude": 39.9289,
      "category": "company",
      "nearby_subway": "木樨地站"
    },
    {
      "company_id": "F500_005",
      "name": "中国工商银行",
      "name_en": "Industrial and Commercial Bank of China",
      "short_name": "工行",
      "industry": "银行",
      "rank_2024": 22,
      "address": "北京市西城区复兴门内大街55号",
      "district": "西城",
      "longitude": 116.3612,
      "latitude": 39.9123,
      "category": "company",
      "nearby_subway": "复兴门站"
    },
    {
      "company_id": "F500_006",
      "name": "中国建设银行",
      "name_en": "China Construction Bank",
      "short_name": "建行",
      "industry": "银行",
      "rank_2024": 30,
      "address": "北京市西城区金融大街25号",
      "district": "西城",
      "longitude": 116.3589,
      "latitude": 39.9189,
      "category": "company",
      "nearby_subway": "复兴门站"
    },
    {
      "company_id": "F500_007",
      "name": "中国农业银行",
      "name_en": "Agricultural Bank of China",
      "short_name": "农行",
      "industry": "银行",
      "rank_2024": 34,
      "address": "北京市东城区建国门内大街69号",
      "district": "东城",
      "longitude": 116.4389,
      "latitude": 39.9156,
      "category": "company",
      "nearby_subway": "东单站"
    },
    {
      "company_id": "F500_008",
      "name": "中国银行",
      "name_en": "Bank of China",
      "short_name": "中行",
      "industry": "银行",
      "rank_2024": 37,
      "address": "北京市西城区复兴门内大街1号",
      "district": "西城",
      "longitude": 116.3634,
      "latitude": 39.9134,
      "category": "company",
      "nearby_subway": "复兴门站"
    },
    {
      "company_id": "F500_009",
      "name": "中国人寿保险",
      "name_en": "China Life Insurance",
      "short_name": "中国人寿",
      "industry": "保险",
      "rank_2024": 59,
      "address": "北京市西城区金融大街16号",
      "district": "西城",
      "longitude": 116.3612,
      "latitude": 39.9189,
      "category": "company",
      "nearby_subway": "复兴门站"
    },
    {
      "company_id": "F500_010",
      "name": "中国移动通信",
      "name_en": "China Mobile Communications",
      "short_name": "中国移动",
      "industry": "电信",
      "rank_2024": 55,
      "address": "北京市西城区金融大街29号",
      "district": "西城",
      "longitude": 116.3589,
      "latitude": 39.9167,
      "category": "company",
      "nearby_subway": "复兴门站"
    },
    {
      "company_id": "F500_011",
      "name": "京东集团",
      "name_en": "JD.com",
      "short_name": "京东",
      "industry": "电商",
      "rank_2024": 126,
      "address": "北京市大兴区亦庄经济开发区科创十一街18号",
      "district": "大兴",
      "longitude": 116.5612,
      "latitude": 39.8089,
      "category": "company",
      "nearby_subway": "经海路站"
    },
    {
      "company_id": "F500_012",
      "name": "字节跳动",
      "name_en": "ByteDance",
      "short_name": "字节",
      "industry": "互联网",
      "rank_2024": 167,
      "address": "北京市海淀区北三环西路27号方恒时尚中心",
      "district": "海淀",
      "longitude": 116.3289,
      "latitude": 39.9789,
      "category": "company",
      "nearby_subway": "大钟寺站"
    },
    {
      "company_id": "F500_013",
      "name": "百度公司",
      "name_en": "Baidu",
      "short_name": "百度",
      "industry": "互联网",
      "rank_2024": 185,
      "address": "北京市海淀区上地十街10号百度大厦",
      "district": "海淀",
      "longitude": 116.3189,
      "latitude": 40.0512,
      "category": "company",
      "nearby_subway": "西二旗站"
    },
    {
      "company_id": "F500_014",
      "name": "小米集团",
      "name_en": "Xiaomi",
      "short_name": "小米",
      "industry": "科技",
      "rank_2024": 266,
      "address": "北京市海淀区西二旗中路33号小米科技园",
      "district": "海淀",
      "longitude": 116.3256,
      "latitude": 40.0556,
      "category": "company",
      "nearby_subway": "西二旗站"
    },
    {
      "company_id": "F500_015",
      "name": "中国电信",
      "name_en": "China Telecom",
      "short_name": "电信",
      "industry": "电信",
      "rank_2024": 132,
      "address": "北京市西城区金融大街31号",
      "district": "西城",
      "longitude": 116.3612,
      "latitude": 39.9156,
      "category": "company",
      "nearby_subway": "复兴门站"
    },
    {
      "company_id": "F500_016",
      "name": "中国联通",
      "name_en": "China Unicom",
      "short_name": "联通",
      "industry": "电信",
      "rank_2024": 178,
      "address": "北京市西城区金融大街21号",
      "district": "西城",
      "longitude": 116.3589,
      "latitude": 39.9145,
      "category": "company",
      "nearby_subway": "复兴门站"
    },
    {
      "company_id": "F500_017",
      "name": "中国邮政集团",
      "name_en": "China Post Group",
      "short_name": "邮政",
      "industry": "物流",
      "rank_2024": 83,
      "address": "北京市西城区金融大街甲3号",
      "district": "西城",
      "longitude": 116.3612,
      "latitude": 39.9167,
      "category": "company",
      "nearby_subway": "复兴门站"
    },
    {
      "company_id": "F500_018",
      "name": "中国中铁",
      "name_en": "China Railway Engineering",
      "short_name": "中铁",
      "industry": "建筑",
      "rank_2024": 102,
      "address": "北京市丰台区南四环西路128号",
      "district": "丰台",
      "longitude": 116.3012,
      "latitude": 39.8389,
      "category": "company",
      "nearby_subway": "丰台科技园站"
    },
    {
      "company_id": "F500_019",
      "name": "中国铁建",
      "name_en": "China Railway Construction",
      "short_name": "铁建",
      "industry": "建筑",
      "rank_2024": 111,
      "address": "北京市海淀区复兴路40号",
      "district": "海淀",
      "longitude": 116.2789,
      "latitude": 39.9089,
      "category": "company",
      "nearby_subway": "玉泉路站"
    },
    {
      "company_id": "F500_020",
      "name": "中国交通建设集团",
      "name_en": "China Communications Construction",
      "short_name": "中交",
      "industry": "建筑",
      "rank_2024": 145,
      "address": "北京市西城区德胜门外大街85号",
      "district": "西城",
      "longitude": 116.3912,
      "latitude": 39.9589,
      "category": "company",
      "nearby_subway": "积水潭站"
    },
    {
      "company_id": "F500_021",
      "name": "中国海洋石油集团",
      "name_en": "China National Offshore Oil",
      "short_name": "中海油",
      "industry": "石油",
      "rank_2024": 56,
      "address": "北京市东城区朝阳门北大街25号",
      "district": "东城",
      "longitude": 116.4412,
      "latitude": 39.9356,
      "category": "company",
      "nearby_subway": "朝阳门站"
    },
    {
      "company_id": "F500_022",
      "name": "中国中化集团",
      "name_en": "Sinochem Holdings",
      "short_name": "中化",
      "industry": "化工",
      "rank_2024": 54,
      "address": "北京市西城区复兴门内大街28号",
      "district": "西城",
      "longitude": 116.3634,
      "latitude": 39.9134,
      "category": "company",
      "nearby_subway": "复兴门站"
    },
    {
      "company_id": "F500_023",
      "name": "中国宝武钢铁集团",
      "name_en": "China Baowu Steel Group",
      "short_name": "宝武",
      "industry": "钢铁",
      "rank_2024": 72,
      "address": "北京市东城区朝阳门北大街1号",
      "district": "东城",
      "longitude": 116.4412,
      "latitude": 39.9312,
      "category": "company",
      "nearby_subway": "朝阳门站"
    },
    {
      "company_id": "F500_024",
      "name": "中粮集团",
      "name_en": "COFCO",
      "short_name": "中粮",
      "industry": "食品",
      "rank_2024": 96,
      "address": "北京市朝阳区朝阳门南大街8号",
      "district": "朝阳",
      "longitude": 116.4412,
      "latitude": 39.9289,
      "category": "company",
      "nearby_subway": "朝阳门站"
    },
    {
      "company_id": "F500_025",
      "name": "五矿集团",
      "name_en": "China Minmetals",
      "short_name": "五矿",
      "industry": "金属",
      "rank_2024": 81,
      "address": "北京市海淀区三里河路5号",
      "district": "海淀",
      "longitude": 116.3389,
      "latitude": 39.9289,
      "category": "company",
      "nearby_subway": "木樨地站"
    },
    {
      "company_id": "F500_026",
      "name": "中铝集团",
      "name_en": "Aluminum Corp of China",
      "short_name": "中铝",
      "industry": "金属",
      "rank_2024": 142,
      "address": "北京市西城区金融大街35号",
      "district": "西城",
      "longitude": 116.3589,
      "latitude": 39.9156,
      "category": "company",
      "nearby_subway": "复兴门站"
    },
    {
      "company_id": "F500_027",
      "name": "中信集团",
      "name_en": "CITIC Group",
      "short_name": "中信",
      "industry": "综合",
      "rank_2024": 71,
      "address": "北京市朝阳区新源南路6号",
      "district": "朝阳",
      "longitude": 116.4612,
      "latitude": 39.9512,
      "category": "company",
      "nearby_subway": "亮马桥站"
    },
    {
      "company_id": "F500_028",
      "name": "联想集团",
      "name_en": "Lenovo Group",
      "short_name": "联想",
      "industry": "科技",
      "rank_2024": 248,
      "address": "北京市海淀区上地创业路6号",
      "district": "海淀",
      "longitude": 116.3212,
      "latitude": 40.0489,
      "category": "company",
      "nearby_subway": "西二旗站"
    },
    {
      "company_id": "F500_029",
      "name": "中国华能集团",
      "name_en": "China Huaneng Group",
      "short_name": "华能",
      "industry": "电力",
      "rank_2024": 187,
      "address": "北京市西城区复兴门内大街6号",
      "district": "西城",
      "longitude": 116.3634,
      "latitude": 39.9123,
      "category": "company",
      "nearby_subway": "复兴门站"
    },
    {
      "company_id": "F500_030",
      "name": "国家能源集团",
      "name_en": "National Energy Investment",
      "short_name": "国能",
      "industry": "能源",
      "rank_2024": 84,
      "address": "北京市东城区东直门南大街3号",
      "district": "东城",
      "longitude": 116.4312,
      "latitude": 39.9412,
      "category": "company",
      "nearby_subway": "东四十条站"
    }
  ]
}
