{
  "metadata": {
    "city": "北京",
    "total_landmarks": 25,
    "coordinate_system": "WGS84",
    "update_time": "2026-02-15"
  },
  "landmarks": [
    {
      "landmark_id": "LM_001",
      "name": "三里屯太古里",
      "type": "shopping",
      "type_name": "购物中心",
      "district": "朝阳",
      "address": "北京市朝阳区三里屯路19号",
      "longitude": 116.4567,
      "latitude": 39.9356,
      "category": "landmark",
      "nearby_subway": "团结湖站"
    },
    {
      "landmark_id": "LM_002",
      "name": "国贸商城",
      "type": "shopping",
      "type_name": "购物中心",
      "district": "朝阳",
      "address": "北京市朝阳区建国门外大街1号",
      "longitude": 116.4623,
      "latitude": 39.9106,
      "category": "landmark",
      "nearby_subway": "国贸站"
    },
    {
      "landmark_id": "LM_003",
      "name": "西单大悦城",
      "type": "shopping",
      "type_name": "购物中心",
      "district": "西城",
      "address": "北京市西城区西单北大街131号",
      "longitude": 116.3812,
      "latitude": 39.9134,
      "category": "landmark",
      "nearby_subway": "西单站"
    },
    {
      "landmark_id": "LM_004",
      "name": "王府井步行街",
      "type": "shopping",
      "type_name": "商业街",
      "district": "东城",
      "address": "北京市东城区王府井大街",
      "longitude": 116.4212,
      "latitude": 39.9156,
      "category": "landmark",
      "nearby_subway": "王府井站"
    },
    {
      "landmark_id": "LM_005",
      "name": "朝阳大悦城",
      "type": "shopping",
      "type_name": "购物中心",
      "district": "朝阳",
      "address": "北京市朝阳区朝阳北路101号",
      "longitude": 116.5212,
      "latitude": 39.9289,
      "category": "landmark",
      "nearby_subway": "青年路站"
    },
    {
      "landmark_id": "LM_006",
      "name": "颐堤港",
      "type": "shopping",
      "type_name": "购物中心",
      "district": "朝阳",
      "address": "北京市朝阳区酒仙桥路18号",
      "longitude": 116.5012,
      "latitude": 39.9789,
      "category": "landmark",
      "nearby_subway": "将台站"
    },
    {
      "landmark_id": "LM_007",
      "name": "蓝色港湾",
      "type": "shopping",
      "type_name": "购物中心",
      "district": "朝阳",
      "address": "北京市朝阳区朝阳公园路6号",
      "longitude": 116.4812,
      "latitude": 39.9512,
      "category": "landmark",
      "nearby_subway": "枣营站"
    },
    {
      "landmark_id": "LM_008",
      "name": "中关村广场",
      "type": "shopping",
      "type_name": "购物中心",
      "district": "海淀",
      "address": "北京市海淀区中关村大街15号",
      "longitude": 116.3189,
      "latitude": 39.9856,
      "category": "landmark",
      "nearby_subway": "中关村站"
    },
    {
      "landmark_id": "LM_009",
      "name": "华熙LIVE五棵松",
      "type": "shopping",
      "type_name": "购物中心",
      "district": "海淀",
      "address": "北京市海淀区复兴路69号",
      "longitude": 116.2789,
      "latitude": 39.9089,
      "category": "landmark",
      "nearby_subway": "五棵松站"
    },
    {
      "landmark_id": "LM_010",
      "name": "奥林匹克公园",
      "type": "park",
      "type_name": "公园",
      "district": "朝阳",
      "address": "北京市朝阳区北辰东路15号",
      "longitude": 116.3892,
      "latitude": 39.9917,
      "category": "landmark",
      "nearby_subway": "奥林匹克公园站"
    },
    {
      "landmark_id": "LM_011",
      "name": "朝阳公园",
      "type": "park",
      "type_name": "公园",
      "district": "朝阳",
      "address": "北京市朝阳区朝阳公园南路1号",
      "longitude": 116.4912,
      "latitude": 39.9512,
      "category": "landmark",
      "nearby_subway": "朝阳公园站"
    },
    {
      "landmark_id": "LM_012",
      "name": "天坛公园",
      "type": "park",
      "type_name": "公园",
      "district": "东城",
      "address": "北京市东城区天坛东里甲1号",
      "longitude": 116.4112,
      "latitude": 39.8912,
      "category": "landmark",
      "nearby_subway": "天坛东门站"
    },
    {
      "landmark_id": "LM_013",
      "name": "颐和园",
      "type": "park",
      "type_name": "公园",
      "district": "海淀",
      "address": "北京市海淀区新建宫门路19号",
      "longitude": 116.2789,
      "latitude": 39.9989,
      "category": "landmark",
      "nearby_subway": "北宫门站"
    },
    {
      "landmark_id": "LM_014",
      "name": "圆明园",
      "type": "park",
      "type_name": "公园",
      "district": "海淀",
      "address": "北京市海淀区清华西路28号",
      "longitude": 116.3189,
      "latitude": 40.0012,
      "category": "landmark",
      "nearby_subway": "圆明园站"
    },
    {
      "landmark_id": "LM_015",
      "name": "天安门广场",
      "type": "landmark",
      "type_name": "地标",
      "district": "东城",
      "address": "北京市东城区东长安街",
      "longitude": 116.4089,
      "latitude": 39.9123,
      "category": "landmark",
      "nearby_subway": "天安门东站"
    },
    {
      "landmark_id": "LM_016",
      "name": "故宫博物院",
      "type": "landmark",
      "type_name": "地标",
      "district": "东城",
      "address": "北京市东城区景山前街4号",
      "longitude": 116.4012,
      "latitude": 39.9189,
      "category": "landmark",
      "nearby_subway": "天安门东站"
    },
    {
      "landmark_id": "LM_017",
      "name": "国家体育场（鸟巢）",
      "type": "landmark",
      "type_name": "地标",
      "district": "朝阳",
      "address": "北京市朝阳区国家体育场南路1号",
      "longitude": 116.3912,
      "latitude": 39.9956,
      "category": "landmark",
      "nearby_subway": "奥林匹克公园站"
    },
    {
      "landmark_id": "LM_018",
      "name": "国家游泳中心（水立方）",
      "type": "landmark",
      "type_name": "地标",
      "district": "朝阳",
      "address": "北京市朝阳区天辰东路11号",
      "longitude": 116.3912,
      "latitude": 39.9989,
      "category": "landmark",
      "nearby_subway": "奥林匹克公园站"
    },
    {
      "landmark_id": "LM_019",
      "name": "首都国际机场T3航站楼",
      "type": "transport",
      "type_name": "交通枢纽",
      "district": "顺义",
      "address": "北京市顺义区首都机场路",
      "longitude": 116.6212,
      "latitude": 40.0812,
      "category": "landmark",
      "nearby_subway": "T3航站楼站"
    },
    {
      "landmark_id": "LM_020",
      "name": "北京南站",
      "type": "transport",
      "type_name": "交通枢纽",
      "district": "丰台",
      "address": "北京市丰台区永外大街车站路12号",
      "longitude": 116.3812,
      "latitude": 39.8712,
      "category": "landmark",
      "nearby_subway": "北京南站"
    },
    {
      "landmark_id": "LM_021",
      "name": "北京西站",
      "type": "transport",
      "type_name": "交通枢纽",
      "district": "丰台",
      "address": "北京市丰台区莲花池东路118号",
      "longitude": 116.3289,
      "latitude": 39.8989,
      "category": "landmark",
      "nearby_subway": "北京西站"
    },
    {
      "landmark_id": "LM_022",
      "name": "798艺术区",
      "type": "culture",
      "type_name": "文化",
      "district": "朝阳",
      "address": "北京市朝阳区酒仙桥路4号",
      "longitude": 116.5012,
      "latitude": 39.9889,
      "category": "landmark",
      "nearby_subway": "望京南站"
    },
    {
      "landmark_id": "LM_023",
      "name": "国家大剧院",
      "type": "culture",
      "type_name": "文化",
      "district": "西城",
      "address": "北京市西城区西长安街2号",
      "longitude": 116.3912,
      "latitude": 39.9089,
      "category": "landmark",
      "nearby_subway": "天安门西站"
    },
    {
      "landmark_id": "LM_024",
      "name": "五道口购物中心",
      "type": "shopping",
      "type_name": "购物中心",
      "district": "海淀",
      "address": "北京市海淀区成府路35号",
      "longitude": 116.3389,
      "latitude": 39.9956,
      "category": "landmark",
      "nearby_subway": "五道口站"
    },
    {
      "landmark_id": "LM_025",
      "name": "望京SOHO",
      "type": "landmark",
      "type_name": "地标",
      "district": "朝阳",
      "address": "北京市朝阳区望京街9号",
      "longitude": 116.4812,
      "latitude": 40.0012,
      "category": "landmark",
      "nearby_subway": "望京站"
    }
  ]
}
